id,name,latitude,longitude
1,水沢駅/商店街,39.1394783129415,141.14602032008932
2,Zホール,39.14677419264678,141.15392084241688
3,水沢公園周辺,39.135147585220615,141.13908556490122
4,マイアネタウン周辺,39.116246929907454,141.16185906625503
5,水沢江刺駅周辺,39.145184017163615,141.18845557238419
6,奥州市役所周辺,39.14489832854271,141.13922494688182
7,西環状線周辺（日高〜八反町）,39.14838521785622,141.13207087845046
8,江刺総合支所周辺,39.192412455779035,141.1733779400935
9,江刺ふるさと市場,39.160758213829276,141.18105198600628
